[
 {
   "Place": "Mandir Marg",
   "Latitude": 28.636429,
   "Longitude": 77.201067
 },
 {
   "Place": "Sonia Vihar",
   "Latitude": 28.710508,
   "Longitude": 77.249485
 },
 {
   "Place": "Vivek_Vihar",
   "Latitude": 28.672342,
   "Longitude": 77.31526
 },
 {
   "Place": "Anand_Vihar",
   "Latitude": 28.646835,
   "Longitude": 77.316032
 },
 {
   "Place": "Dilshad_Garden",
   "Latitude": 28.6811736,
   "Longitude": 77.3025234
 },
 {
   "Place": "Sanjay Nagar, ",
   "Latitude": 28.685382,
   "Longitude": 77.453839
 },
 {
   "Place": "Pusa_DPCC",
   "Latitude": 28.639645,
   "Longitude": 77.146262
 },
 {
   "Place": "Shadipur",
   "Latitude": 28.6514781,
   "Longitude": 77.1473105
 },
 {
   "Place": "North_Campus",
   "Latitude": 28.6573814,
   "Longitude": 77.1585447
 },
 {
   "Place": "Wazirpur",
   "Latitude": 28.699793,
   "Longitude": 77.165453
 },
 {
   "Place": "Punjabi_Bagh",
   "Latitude": 28.674045,
   "Longitude": 77.131023
 },
 {
   "Place": "Rohini",
   "Latitude": 28.732528,
   "Longitude": 77.11992
 },
 {
   "Place": "Jahangirpuri",
   "Latitude": 28.73282,
   "Longitude": 77.170633
 },
 {
   "Place": "Mundka",
   "Latitude": 28.684678,
   "Longitude": 77.076574
 },
 {
   "Place": "Narela",
   "Latitude": 28.822836,
   "Longitude": 77.101981
 },
 {
   "Place": "NSIT_Dwarka",
   "Latitude": 28.60909,
   "Longitude": 77.0325413
 },
 {
   "Place": "Dwarka-Sector 8",
   "Latitude": 28.5710274,
   "Longitude": 77.0719006
 },
 {
   "Place": "IGI Airport (T3)",
   "Latitude": 28.5627763,
   "Longitude": 77.1180053
 },
 {
   "Place": "R K Puram",
   "Latitude": 28.563262,
   "Longitude": 77.186937
 },
 {
   "Place": "SA_Marg",
   "Latitude": 28.531346,
   "Longitude": 77.190156
 },
 {
   "Place": "Najafgarh",
   "Latitude": 28.570173,
   "Longitude": 76.933762
 },
 {
   "Place": "JN_Stadium",
   "Latitude": 28.58028,
   "Longitude": 77.233829
 },
 {
   "Place": "Lodhi_Road",
   "Latitude": 28.5918245,
   "Longitude": 77.2273074
 },
 {
   "Place": "ITO",
   "Latitude": 28.6316945,
   "Longitude": 77.2494387
 },
 {
   "Place": "MDC_Stadium",
   "Latitude": 28.611281,
   "Longitude": 77.237738
 },
 {
   "Place": "Okhla_Phase2",
   "Latitude": 28.530785,
   "Longitude": 77.271255
 },
 {
   "Place": "Patparganj",
   "Latitude": 28.623748,
   "Longitude": 77.287205
 },
 {
   "Place": "Nehru_Nagar",
   "Latitude": 28.56789,
   "Longitude": 77.250515
 },
 {
   "Place": "Sirifort",
   "Latitude": 28.5504249,
   "Longitude": 77.2159377
 },
 {
   "Place": "Knowledge Park - V",
   "Latitude": 28.557054,
   "Longitude": 77.453663
 },
 {
   "Place": "Sector-116, Noida",
   "Latitude": 28.56923,
   "Longitude": 77.393848
 },
 {
   "Place": "Sector - 125, Noida",
   "Latitude": 28.5447608,
   "Longitude": 77.3231257
 },
 {
   "Place": "Knowledge Park - III",
   "Latitude": 28.47272,
   "Longitude": 77.482
 },
 {
   "Place": "Dr. KSS Range ",
   "Latitude": 28.498571,
   "Longitude": 77.26484
 }
]